,stn_name,stn_id,stn_lon,stn_lat,stn_ele,stn_obs_hgt,stn_mnet_id,stn_tmzn,stn_datetime_start,stn_datetime_end,stn_state,stn_county,stn_cwa,stn_notes
109,"Lompoc, Vandenberg Air Force Base",KVBG,-120.57667,34.72944,367,10,1,America/Los_Angeles,1998-10-01 0:00:00,2020-08-04 6:32:00,CA,Santa Barbara,LOX,
21,"Daggett, Barstow-Daggett Airport",KDAG,-116.78667,34.85361,1926,10,1,America/Los_Angeles,1997-01-11 0:00:00,2020-08-04 6:50:00,CA,San Bernardino,VEF,
319,Sacramento Executive Airport,KSAC,-121.49597,38.50674,16,10,1,America/Los_Angeles,1997-04-12 0:00:00,2020-08-04 6:53:00,CA,Sacramento,STO,
315,Redding Municipal Airport,KRDD,-122.2977,40.51461,499,10,1,America/Los_Angeles,1997-04-12 0:00:00,2020-08-04 6:53:00,CA,Shasta,STO,
328,"San Francisco, San Francisco International Airport",KSFO,-122.36558,37.61961,10,10,1,America/Los_Angeles,1997-04-12 0:00:00,2020-08-04 6:50:00,CA,San Mateo,MTR,
334,Santa Maria Public Airport/Capt G Allan Hancock Field,KSMX,-120.45212,34.89408,243,10,1,America/Los_Angeles,1997-04-12 0:00:00,2020-08-04 6:51:00,CA,Santa Barbara,LOX,
85,"Santa Barbara, Santa Barbara Municipal Airport",KSBA,-119.84361,34.42611,10,10,1,America/Los_Angeles,1997-04-12 0:00:00,2020-08-04 6:53:00,CA,Santa Barbara,LOX,
242,"Bakersfield, Meadows Field Airport",KBFL,-119.05667,35.43361,509,10,1,America/Los_Angeles,1997-04-12 0:00:00,2020-08-04 6:54:00,CA,Kern,HNX,
3,"Arcata / Eureka, Arcata Airport",KACV,-124.10861,40.97806,217,10,1,America/Los_Angeles,1997-04-12 0:00:00,2020-08-04 6:53:00,CA,Humboldt,EKA,